- name: "Michigan Stadium — Michigan Wolverines"
  lat: 42.2656
  lon: -83.7483

- name: "Beaver Stadium — Penn State Nittany Lions"
  lat: 40.8121
  lon: -77.8568

- name: "Ohio Stadium — Ohio State Buckeyes"
  lat: 39.9981
  lon: -83.0151

- name: "Spartan Stadium — Michigan State Spartans"
  lat: 42.7090
  lon: -84.4871

- name: "Kinnick Stadium — Iowa Hawkeyes"
  lat: 41.6628
  lon: -91.5359

- name: "Memorial Stadium — Illinois Fighting Illini"
  lat: 40.0992
  lon: -88.2353

- name: "Memorial Stadium — Indiana Hoosiers"
  lat: 39.1653
  lon: -86.5264

- name: "SHI Stadium — Rutgers Scarlet Knights"
  lat: 40.5148
  lon: -74.4483

- name: "SECU Stadium — Maryland Terrapins"
  lat: 38.9869
  lon: -76.9440

- name: "Huntington Bank Stadium — Minnesota Golden Gophers"
  lat: 44.9739
  lon: -93.2277

- name: "Ross-Ade Stadium — Purdue Boilermakers"
  lat: 40.4261
  lon: -86.9102

- name: "Autzen Stadium — Oregon Ducks"
  lat: 44.0622
  lon: -123.0730

- name: "Husky Stadium — Washington Huskies"
  lat: 47.6493
  lon: -122.3035

- name: "Rose Bowl Stadium — UCLA Bruins"
  lat: 34.1613
  lon: -118.1676

- name: "Los Angeles Memorial Coliseum — USC Trojans"
  lat: 34.0141
  lon: -118.2879

- name: "Memorial Stadium — Nebraska Cornhuskers"
  lat: 40.8206
  lon: -96.7009

- name: "Ryan Field — Northwestern Wildcats"
  lat: 42.0654
  lon: -87.6925

- name: "Camp Randall Stadium — Wisconsin Badgers"
  lat: 43.0760
  lon: -89.4125
