# Best to verify this includes all state park units; I'm not confident in the data.
- name: "Abilene State Park"
  lat: 32.240731
  lon: -99.879139

- name: "Albert & Bessie Kronkosky State Natural Area"
  lat: 29.740323
  lon: -98.838093

- name: "Atlanta State Park"
  lat: 33.230731
  lon: -94.249693

- name: "Balmorhea State Park"
  lat: 30.945036
  lon: -103.786663

- name: "Barton Warnock Visitor Center"
  lat: 29.269902
  lon: -103.757351

- name: "Bastrop State Park"
  lat: 30.110149
  lon: -97.286864

- name: "Bentsen-Rio Grande Valley State Park"
  lat: 26.186987
  lon: -98.381888

- name: "Big Bend Ranch State Park"
  lat: 29.470458
  lon: -103.957922

- name: "Big Spring State Park"
  lat: 32.232288
  lon: -101.490728

- name: "Blanco State Park"
  lat: 30.093082
  lon: -98.423845

- name: "Bonham State Park"
  lat: 33.546727
  lon: -96.144758

- name: "Brazos Bend State Park"
  lat: 29.371
  lon: -95.631921

- name: "Buescher State Park"
  lat: 30.039098
  lon: -97.158295

- name: "Caddo Lake State Park"
  lat: 32.680233
  lon: -94.176361

- name: "Caprock Canyons State Park"
  lat: 34.410296
  lon: -101.053264

- name: "Cedar Hill State Park"
  lat: 32.621721
  lon: -96.979087

- name: "Choke Canyon State Park"
  lat: 28.465773
  lon: -98.354195

- name: "Cleburne State Park"
  lat: 32.252365
  lon: -97.549617

- name: "Colorado Bend State Park"
  lat: 31.022965
  lon: -98.442401

- name: "Cooper State Park - Doctors Creek Unit"
  lat: 33.3487
  lon: -95.663677

- name: "Cooper State Park - South Sulphur Unit"
  lat: 33.28773
  lon: -95.65792

- name: "Copper Breaks State Park"
  lat: 34.112176
  lon: -99.743296

- name: "Daingerfield State Park"
  lat: 33.013
  lon: -94.690587

- name: "Davis Mountains State Park"
  lat: 30.599103
  lon: -103.92945

- name: "Devils River State Natural Area"
  lat: 29.939694
  lon: -100.970206

- name: "Devil's Sinkhole State Natural Area (Rocksprings Visitor Center)"
  lat: 30.015773
  lon: -100.208552

- name: "Dinosaur Valley State Park"
  lat: 32.246194
  lon: -97.813375

- name: "Eisenhower State Park"
  lat: 33.810339
  lon: -96.599971

- name: "Enchanted Rock State Natural Area"
  lat: 30.496033
  lon: -98.819952

- name: "Estero Llano Grande State Park"
  lat: 26.126411
  lon: -97.956518

- name: "Falcon State Park"
  lat: 26.582801
  lon: -99.142716

- name: "Fort Boggy State Park"
  lat: 31.187372
  lon: -95.976646

- name: "Fort Leaton State Historic Site"
  lat: 29.542511
  lon: -104.326348

- name: "Fort Parker State Park"
  lat: 31.592347
  lon: -96.526655

- name: "Fort Richardson State Park & Historic Site / Lost Creek Reservoir State Trailway"
  lat: 33.206158
  lon: -98.156966

- name: "Franklin Mountains State Park"
  lat: 31.842388
  lon: -106.486444

- name: "Galveston Island State Park"
  lat: 29.198755
  lon: -94.956212

- name: "Garner State Park"
  lat: 29.598887
  lon: -99.743981

- name: "Goliad State Park & Historic Site"
  lat: 28.656544
  lon: -97.387265

- name: "Goose Island State Park"
  lat: 28.133503
  lon: -96.98428

- name: "Government Canyon State Natural Area"
  lat: 29.549316
  lon: -98.764715

- name: "Guadalupe River State Park"
  lat: 29.853084
  lon: -98.504463

- name: "Hill Country State Natural Area"
  lat: 29.628034
  lon: -99.181086

- name: "Honey Creek State Natural Area"
  lat: 29.863258
  lon: -98.489913

- name: "Hueco Tanks State Park & Historic Site"
  lat: 31.926453
  lon: -106.042437

- name: "Huntsville State Park"
  lat: 30.628404
  lon: -95.525921

- name: "Indian Lodge"
  lat: 30.592638
  lon: -103.943469

- name: "Inks Lake State Park"
  lat: 30.737356
  lon: -98.369007

- name: "Kickapoo Cavern State Park"
  lat: 29.610016
  lon: -100.452465

- name: "Lake Arrowhead State Park"
  lat: 33.758578
  lon: -98.395201

- name: "Lake Bob Sandlin State Park"
  lat: 33.053955
  lon: -95.099155

- name: "Lake Brownwood State Park"
  lat: 31.856987
  lon: -99.028641

- name: "Lake Casa Blanca International State Park"
  lat: 27.539343
  lon: -99.451383

- name: "Lake Colorado City State Park"
  lat: 32.318219
  lon: -100.936476

- name: "Lake Corpus Christi State Park"
  lat: 28.063101
  lon: -97.872178

- name: "Lake Livingston State Park"
  lat: 30.656897
  lon: -95.001093

- name: "Lake Mineral Wells State Park"
  lat: 32.812655
  lon: -98.043368

- name: "Lake Somerville State Park - Birch Creek Unit"
  lat: 30.308582
  lon: -96.634692

- name: "Lake Somerville State Park - Nails Creek Unit"
  lat: 30.290719
  lon: -96.667214

- name: "Lake Tawakoni State Park"
  lat: 32.841871
  lon: -95.993667

- name: "Lake Whitney State Park"
  lat: 31.931234
  lon: -97.356833

- name: "Lockhart State Park"
  lat: 29.855409
  lon: -97.697742

- name: "Longhorn Cavern State Park"
  lat: 30.684441
  lon: -98.35097

- name: "Lost Maples State Natural Area"
  lat: 29.807719
  lon: -99.570697

- name: "Lyndon B. Johnson State Park & Historic Site"
  lat: 30.237656
  lon: -98.626279

- name: "Martin Creek Lake State Park"
  lat: 32.27795
  lon: -94.566051

- name: "Martin Dies, Jr. State Park"
  lat: 30.846627
  lon: -94.165869

- name: "McKinney Falls State Park"
  lat: 30.180752
  lon: -97.722007

- name: "Meridian State Park"
  lat: 31.890791
  lon: -97.697566

- name: "Mission Tejas State Park"
  lat: 31.542272
  lon: -95.232191

- name: "Monahans Sandhills State Park"
  lat: 31.618795
  lon: -102.812112

- name: "Mother Neff State Park"
  lat: 31.321559
  lon: -97.46915

- name: "Mustang Island State Park"
  lat: 27.672162
  lon: -97.175309

- name: "Old Tunnel State Park"
  lat: 30.101079
  lon: -98.820704

- name: "Palmetto State Park"
  lat: 29.596906
  lon: -97.58514

- name: "Palo Duro Canyon State Park"
  lat: 34.984709
  lon: -101.701867

- name: "Palo Pinto Mountains State Park"
  lat: 32.535432
  lon: -98.556552

- name: "Pedernales Falls State Park"
  lat: 30.308054
  lon: -98.257649

- name: "Possum Kingdom State Park"
  lat: 32.873573
  lon: -98.559331

- name: "Powderhorn State Park"
  lat: 28.434172
  lon: -96.535221

- name: "Purtis Creek State Park"
  lat: 32.353794
  lon: -95.993554

- name: "Ray Roberts Lake State Park - Isle du Bois Unit"
  lat: 33.365671
  lon: -97.01215

- name: "Ray Roberts Lake State Park - Johnson Branch Unit"
  lat: 33.429802
  lon: -97.056449

- name: "Resaca de la Palma State Park"
  lat: 25.996275
  lon: -97.571269

- name: "San Angelo State Park"
  lat: 31.463922
  lon: -100.508038

- name: "Sea Rim State Park"
  lat: 29.675539
  lon: -94.043525

- name: "Seminole Canyon State Park & Historic Site"
  lat: 29.700094
  lon: -101.312875

- name: "Sheldon Lake State Park & Environmental Learning Center"
  lat: 29.857461
  lon: -95.160029

- name: "South Llano River State Park"
  lat: 30.445396
  lon: -99.804102

- name: "Stephen F. Austin State Park"
  lat: 29.811982
  lon: -96.108059

- name: "Tyler State Park"
  lat: 32.48218
  lon: -95.283396

- name: "Village Creek State Park"
  lat: 30.250499
  lon: -94.1787

- name: "Wyler Aerial Tramway"
  lat: 31.80939
  lon: -106.478426
