- name: "Head-Smashed-In Buffalo Jump"
  lat: 49.7470
  lon: -113.6230

- name: "Historic District of Old Québec"
  lat: 46.8139
  lon: -71.2080

- name: "L'Anse aux Meadows National Historic Site"
  lat: 51.5986
  lon: -55.5333

- name: "Landscape of Grand Pré"
  lat: 45.1186
  lon: -64.3106

- name: "Old Town Lunenburg"
  lat: 44.3771
  lon: -64.3188

- name: "Red Bay Basque Whaling Station"
  lat: 51.7314
  lon: -56.4281

- name: "Rideau Canal"
  lat: 45.4236
  lon: -75.7009

- name: "S_Gang Gwaay"
  lat: 52.0980
  lon: -131.2220

- name: "Tr'ondëk-Klondike"
  lat: 64.0601
  lon: -139.4328

- name: "Writing-on-Stone / Áísínai'pi"
  lat: 49.0833
  lon: -111.6189

- name: "Anticosti"
  lat: 49.5000
  lon: -63.0000

- name: "Canadian Rocky Mountain Parks"
  lat: 51.4968
  lon: -115.9281

- name: "Dinosaur Provincial Park"
  lat: 50.7619
  lon: -111.4927

- name: "Gros Morne National Park"
  lat: 49.6490
  lon: -57.7300

- name: "Joggins Fossil Cliffs"
  lat: 45.7028
  lon: -64.4392

- name: "Kluane / Wrangell-St. Elias / Glacier Bay / Tatshenshini-Alsek"
  lat: 60.7500
  lon: -139.0000

- name: "Miguasha National Park"
  lat: 48.1089
  lon: -66.3589

- name: "Mistaken Point"
  lat: 46.6180
  lon: -53.2000

- name: "Nahanni National Park"
  lat: 61.5500
  lon: -125.6000

- name: "Waterton Glacier International Peace Park"
  lat: 49.0000
  lon: -113.9000

- name: "Wood Buffalo National Park"
  lat: 59.3900
  lon: -112.8000

- name: "Pimachiowin Aki"
  lat: 51.8290
  lon: -94.9000
