- name: "Gateway Center Arena - Atlanta Dream"
  lat: 33.6806
  lon: -84.4393

- name: "TD Garden - Boston WNBA Expansion"
  lat: 42.3662
  lon: -71.0621

- name: "Barclays Center - New York Liberty"
  lat: 40.6826
  lon: -73.9754

- name: "Mohegan Sun Arena - Connecticut Sun"
  lat: 41.4913
  lon: -72.0950

- name: "Wintrust Arena - Chicago Sky"
  lat: 41.8539
  lon: -87.6189

- name: "Gainbridge Fieldhouse - Indiana Fever"
  lat: 39.7639
  lon: -86.1555

- name: "Target Center - Minnesota Lynx"
  lat: 44.9795
  lon: -93.2760

- name: "Michelob ULTRA Arena - Las Vegas Aces"
  lat: 36.0923
  lon: -115.1765

- name: "Climate Pledge Arena - Seattle Storm"
  lat: 47.6221
  lon: -122.3540

- name: "College Park Center - Dallas Wings"
  lat: 32.7315
  lon: -97.1081

- name: "Crypto.com Arena - Los Angeles Sparks"
  lat: 34.0430
  lon: -118.2673

- name: "Footprint Center - Phoenix Mercury"
  lat: 33.4457
  lon: -112.0712

- name: "Chase Center - Golden State Valkyries"
  lat: 37.7680
  lon: -122.3877
