- name: "Alabama"
  lat: 32.8067
  lon: -86.7911

- name: "Alaska"
  lat: 61.3707
  lon: -152.4044

- name: "Arizona"
  lat: 33.7298
  lon: -111.4312

- name: "Arkansas"
  lat: 34.9697
  lon: -92.3731

- name: "California"
  lat: 36.1162
  lon: -119.6816

- name: "Colorado"
  lat: 39.0598
  lon: -105.3111

- name: "Connecticut"
  lat: 41.5978
  lon: -72.7554

- name: "Delaware"
  lat: 39.3185
  lon: -75.5071

- name: "Florida"
  lat: 27.7663
  lon: -81.6868

- name: "Georgia"
  lat: 33.0406
  lon: -83.6431

- name: "Hawaii"
  lat: 21.0943
  lon: -157.4983

- name: "Idaho"
  lat: 44.2405
  lon: -114.4788

- name: "Illinois"
  lat: 40.3495
  lon: -88.9861

- name: "Indiana"
  lat: 39.8494
  lon: -86.2583

- name: "Iowa"
  lat: 42.0115
  lon: -93.2105

- name: "Kansas"
  lat: 38.5266
  lon: -96.7265

- name: "Kentucky"
  lat: 37.6681
  lon: -84.6701

- name: "Louisiana"
  lat: 31.1695
  lon: -91.8678

- name: "Maine"
  lat: 44.6939
  lon: -69.3819

- name: "Maryland"
  lat: 39.0639
  lon: -76.8021

- name: "Massachusetts"
  lat: 42.2302
  lon: -71.5301

- name: "Michigan"
  lat: 43.3266
  lon: -84.5361

- name: "Minnesota"
  lat: 45.6945
  lon: -93.9002

- name: "Mississippi"
  lat: 32.7416
  lon: -89.6787

- name: "Missouri"
  lat: 38.4561
  lon: -92.2884

- name: "Montana"
  lat: 46.9219
  lon: -110.4544

- name: "Nebraska"
  lat: 41.1254
  lon: -98.2681

- name: "Nevada"
  lat: 38.3135
  lon: -117.0554

- name: "New Hampshire"
  lat: 43.4525
  lon: -71.5639

- name: "New Jersey"
  lat: 40.2989
  lon: -74.5210

- name: "New Mexico"
  lat: 34.8405
  lon: -106.2485

- name: "New York"
  lat: 42.1657
  lon: -74.9481

- name: "North Carolina"
  lat: 35.6301
  lon: -79.8064

- name: "North Dakota"
  lat: 47.5289
  lon: -99.7840

- name: "Ohio"
  lat: 40.3888
  lon: -82.7649

- name: "Oklahoma"
  lat: 35.5653
  lon: -96.9289

- name: "Oregon"
  lat: 44.5720
  lon: -122.0709

- name: "Pennsylvania"
  lat: 40.5908
  lon: -77.2098

- name: "Rhode Island"
  lat: 41.6809
  lon: -71.5118

- name: "South Carolina"
  lat: 33.8569
  lon: -80.9450

- name: "South Dakota"
  lat: 44.2998
  lon: -99.4388

- name: "Tennessee"
  lat: 35.7478
  lon: -86.6923

- name: "Texas"
  lat: 31.0545
  lon: -97.5635

- name: "Utah"
  lat: 40.1500
  lon: -111.8624

- name: "Vermont"
  lat: 44.0459
  lon: -72.7107

- name: "Virginia"
  lat: 37.7693
  lon: -78.1700

- name: "Washington"
  lat: 47.4009
  lon: -121.4905

- name: "West Virginia"
  lat: 38.4912
  lon: -80.9545

- name: "Wisconsin"
  lat: 44.2685
  lon: -89.6165

- name: "Wyoming"
  lat: 42.7559
  lon: -107.3025
