- name: "Blaenavon Industrial Landscape"
  lat: 51.7740
  lon: -3.0840

- name: "Blenheim Palace"
  lat: 51.8410
  lon: -1.3610

- name: "Canterbury Cathedral, St Augustine's Abbey, and St Martin's Church"
  lat: 51.2798
  lon: 1.0830

- name: "Castles and Town Walls of King Edward in Gwynedd"
  lat: 53.1390
  lon: -4.2760

- name: "City of Bath"
  lat: 51.3811
  lon: -2.3590

- name: "Cornwall and West Devon Mining Landscape"
  lat: 50.1380
  lon: -5.3870

- name: "Derwent Valley Mills"
  lat: 53.0280
  lon: -1.4940

- name: "Durham Castle and Cathedral"
  lat: 54.7730
  lon: -1.5760

- name: "Frontiers of the Roman Empire"
  lat: 55.0250
  lon: -2.6040

- name: "Gorham's Cave Complex"
  lat: 36.1120
  lon: -5.3420

- name: "Heart of Neolithic Orkney"
  lat: 59.0480
  lon: -3.1870

- name: "Historic Town of St George and Related Fortifications, Bermuda"
  lat: 32.3810
  lon: -64.6780

- name: "Ironbridge Gorge"
  lat: 52.6270
  lon: -2.4860

- name: "Jodrell Bank Observatory"
  lat: 53.2363
  lon: -2.3071

- name: "Maritime Greenwich"
  lat: 51.4826
  lon: -0.0077

- name: "Moravian Church Settlements"
  lat: 51.5630
  lon: -0.0730

- name: "New Lanark"
  lat: 55.6730
  lon: -3.7810

- name: "Old and New Towns of Edinburgh"
  lat: 55.9533
  lon: -3.1883

- name: "Palace of Westminster and Westminster Abbey including Saint Margaret's Church"
  lat: 51.4995
  lon: -0.1248

- name: "Pontcysyllte Aqueduct and Canal"
  lat: 52.9700
  lon: -3.0880

- name: "Royal Botanic Gardens, Kew"
  lat: 51.4780
  lon: -0.2950

- name: "Saltaire"
  lat: 53.8360
  lon: -1.7900

- name: "Stonehenge, Avebury and Associated Sites"
  lat: 51.1789
  lon: -1.8262

- name: "Studley Royal Park including the Ruins of Fountains Abbey"
  lat: 54.1100
  lon: -1.5730

- name: "The English Lake District"
  lat: 54.4609
  lon: -3.0886

- name: "The Forth Bridge"
  lat: 56.0000
  lon: -3.3870

- name: "The Great Spa Towns of Europe"
  lat: 51.3813
  lon: -2.3590

- name: "The Slate Landscape of Northwest Wales"
  lat: 53.1180
  lon: -4.1190

- name: "Tower of London"
  lat: 51.5081
  lon: -0.0759

- name: "Dorset and East Devon Coast"
  lat: 50.7000
  lon: -2.9330

- name: "Giant's Causeway and Causeway Coast"
  lat: 55.2408
  lon: -6.5116

- name: "Gough and Inaccessible Islands"
  lat: -40.3210
  lon: -9.9410

- name: "Henderson Island"
  lat: -24.3630
  lon: -128.3170

- name: "The Flow Country"
  lat: 58.3000
  lon: -3.9000

- name: "St Kilda"
  lat: 57.8140
  lon: -8.5830
